{"type":"FeatureCollection","features":[{"type":"Feature","properties":{"school":"UC Berkeley","color":"red"},"geometry":{"type":"Point","coordinates":[-122.24577426910399,37.87549702297614]}},{"type":"Feature","properties":{"school":"UCLA","color":"blue"},"geometry":{"type":"Point","coordinates":[-118.44536304473877,34.070755677523]}},{"type":"Feature","properties":{"school":"UC Irvine","color":"green"},"geometry":{"type":"Point","coordinates":[-117.84107208251953,33.641919594005834]}},{"type":"Feature","properties":{"school":"UC Merced","color":"black"},"geometry":{"type":"Point","coordinates":[-120.4237174987793,37.36388139021367]}},{"type":"Feature","properties":{"school":"UC Riverside","color":"yellow"},"geometry":{"type":"Point","coordinates":[-117.33381271362305,33.96564396763015]}},{"type":"Feature","properties":{"school":"UCSD","color":"light blue"},"geometry":{"type":"Point","coordinates":[-117.23613739013672,32.87785719403553]}},{"type":"Feature","properties":{"school":"UC Davis","color":"brown"},"geometry":{"type":"Point","coordinates":[-121.7889404296875,38.53420168131867]}},{"type":"Feature","properties":{"school":"UCSC","color":"yellow"},"geometry":{"type":"Point","coordinates":[-122.0639419555664,36.99843985286533]}},{"type":"Feature","properties":{"school":"UCSB","color":"pink"},"geometry":{"type":"Point","coordinates":[-119.85002517700197,34.41413239423026]}}]}